,City,Cloudiness,Country,Date,Humidity,Lat,Lng,Max Temp,Wind Speed
0,Morehead,1,US,1586541671,31,37.27,-87.18,51.01,8.05
1,Mataura,6,NZ,1586542035,95,-46.19,168.86,42.01,1.99
2,Puerto Ayora,20,EC,1586541594,66,-0.74,-90.35,86.0,5.82
3,Chui,6,UY,1586541593,60,-33.7,-53.46,69.33,10.18
4,Shimoda,75,JP,1586542038,70,34.67,138.95,48.2,3.36
5,Ushuaia,75,AR,1586541389,70,-54.8,-68.3,46.4,23.04
6,Port Hardy,75,CA,1586541769,76,50.7,-127.42,50.0,12.75
7,Cape Town,3,ZA,1586541505,82,-33.93,18.42,66.0,4.7
8,Bambous Virieux,40,MU,1586541607,78,-20.34,57.76,78.8,13.87
9,Vaini,20,TO,1586541321,93,-21.2,-175.2,64.4,2.24
10,New Norfolk,75,AU,1586541579,93,-42.78,147.06,55.4,1.12
11,Kaitangata,21,NZ,1586541584,85,-46.28,169.85,51.01,1.72
12,Ribeira Grande,40,PT,1586541586,77,38.52,-28.7,64.4,5.82
13,Hermanus,2,ZA,1586541578,91,-34.42,19.23,64.99,3.69
14,Nanortalik,100,GL,1586541614,78,60.14,-45.24,36.39,8.05
15,Dikson,98,RU,1586542019,97,73.51,80.55,14.16,6.24
16,Atuona,19,PF,1586541343,77,-9.8,-139.03,81.95,11.95
17,Ağdaş,90,AZ,1586542052,75,40.65,47.48,46.4,2.24
18,Aksarka,19,RU,1586542053,92,66.56,67.8,15.93,6.93
19,Touros,40,BR,1586542054,62,-5.2,-35.46,87.8,12.75
20,Toora-Khem,100,RU,1586542055,61,52.47,96.11,33.13,6.69
21,Kahului,1,US,1586541967,88,20.89,-156.47,72.0,4.25
22,Nikolskoye,75,RU,1586541609,93,59.7,30.79,35.6,4.47
23,Punta Arenas,75,CL,1586541430,66,-53.15,-70.92,48.2,17.22
24,Longyearbyen,20,SJ,1586542059,59,78.22,15.64,3.2,6.93
25,Necochea,0,AR,1586542061,52,-38.55,-58.74,73.0,14.0
26,Saint-Philippe,20,RE,1586541579,74,-21.36,55.77,78.8,16.11
27,Bonthe,55,SL,1586542063,76,7.53,-12.51,84.42,10.56
28,Nhulunbuy,75,AU,1586542064,94,-12.23,136.77,77.0,9.78
29,Oistins,20,BB,1586541602,62,13.07,-59.53,86.0,16.11
30,Ende,47,ID,1586542066,72,-8.84,121.66,81.52,2.17
31,Beloha,41,MG,1586541582,76,-25.17,45.05,72.21,19.22
32,Khatanga,100,RU,1586542041,92,71.97,102.5,28.38,20.94
33,Soyo,99,AO,1586542069,86,-6.13,12.37,78.98,2.35
34,Hobart,75,AU,1586541499,93,-42.88,147.33,55.4,1.12
35,Yellowknife,20,CA,1586541529,66,62.46,-114.35,12.99,17.22
36,Toshām,17,IN,1586542072,22,28.88,75.92,84.79,3.91
37,Koumac,48,NC,1586542073,75,-20.57,164.28,72.61,6.44
38,Albany,75,US,1586541302,56,42.6,-73.97,46.0,25.28
39,Chardara,100,KZ,1586542076,48,41.25,67.97,53.6,3.94
40,Balkhash,0,KZ,1586542077,59,46.84,74.98,39.04,6.6
41,George Town,40,MY,1586541484,88,5.41,100.34,84.0,2.75
42,Airai,42,TL,1586541585,72,-8.93,125.41,60.17,0.58
43,Vila,75,PT,1586542080,87,42.03,-8.16,61.0,5.82
44,Tura,0,IN,1586542081,35,25.52,90.22,73.81,4.54
45,Guerrero Negro,32,MX,1586542082,57,27.98,-114.06,64.26,17.83
46,Upernavik,9,GL,1586541609,86,72.79,-56.15,18.19,5.7
47,Arrondissement de Pontarlier,34,FR,1586542085,41,46.83,6.25,69.8,5.82
48,Les Cayes,37,HT,1586542086,71,18.2,-73.75,82.94,4.32
49,Rikitea,94,PF,1586541583,75,-23.12,-134.97,76.86,6.13
50,San Patricio,5,MX,1586542088,78,19.22,-104.7,82.4,5.82
51,Mīzan Teferī,98,ET,1586542089,64,6.98,35.58,64.04,2.37
52,Marau,40,BR,1586542090,63,-28.45,-52.2,62.6,13.87
53,Thompson,75,CA,1586541588,39,55.74,-97.86,30.2,3.36
54,Tateyama,75,JP,1586542092,39,34.98,139.87,50.0,14.99
55,Saint-François,1,FR,1586542081,35,46.42,3.91,71.6,3.36
56,Sitka,1,US,1586541599,69,57.05,-135.33,37.4,6.17
57,Port Elizabeth,77,ZA,1586541578,88,-33.92,25.57,62.6,9.17
58,Dhrāngadhra,0,IN,1586542096,30,22.98,71.47,85.35,3.2
59,Kerman,75,IR,1586542098,37,30.28,57.08,68.0,6.93
60,Busselton,75,AU,1586542099,49,-33.65,115.33,69.01,14.16
61,Bathsheba,20,BB,1586542100,62,13.22,-59.52,86.0,16.11
62,Dymytrove,67,UA,1586542101,53,48.61,32.98,50.0,13.42
63,Hannibal,1,US,1586541804,29,39.71,-91.36,50.0,5.82
64,Linqiong,40,CN,1586542103,93,30.42,103.46,64.0,6.71
65,Buta,82,CD,1586542104,74,2.79,24.73,76.21,1.14
66,Rāvar,94,IR,1586542105,31,31.27,56.81,69.21,8.72
67,Shingū,16,JP,1586541604,65,33.73,135.98,41.76,8.08
68,Ankpa,76,NG,1586542108,64,7.37,7.63,82.04,3.62
69,Hithadhoo,10,MV,1586542109,63,-0.6,73.08,84.74,5.3
70,Malartic,75,CA,1586542110,85,48.13,-78.13,32.0,18.34
71,Ulaangom,78,MN,1586542111,69,49.98,92.07,27.77,3.18
72,São Filipe,0,CV,1586541583,69,14.9,-24.5,76.95,12.86
73,Faya,40,SA,1586541865,77,18.39,42.45,68.0,11.41
74,Saint Paul Harbor,1,US,1586541599,79,57.79,-152.41,26.6,5.82
75,Hong Kong,40,HK,1586541836,83,22.29,114.16,73.0,13.87
76,Hammerfest,100,NO,1586542116,86,70.66,23.68,26.6,6.93
77,Klichka,0,RU,1586542117,48,50.45,118.0,36.95,3.69
78,Kaeo,1,NZ,1586542118,93,-35.1,173.78,48.99,3.69
79,Tūkrah,0,LY,1586542119,75,32.53,20.58,58.37,8.43
80,Jiuquan,0,CN,1586542121,25,39.74,98.52,41.99,7.9
81,Alyangula,90,AU,1586542122,100,-13.85,136.42,75.2,7.87
82,Mayya,75,RU,1586542123,83,61.73,130.28,39.2,13.42
83,Ponta do Sol,20,PT,1586541593,64,32.67,-17.1,68.0,12.75
84,Cherskiy,62,RU,1586542125,87,68.75,161.3,2.91,23.51
85,Grindavik,90,IS,1586542126,93,63.84,-22.43,39.2,16.11
86,Saint George,1,US,1586542068,57,37.1,-113.58,59.0,3.36
87,Blagoyevo,99,RU,1586542128,96,63.37,47.92,24.57,7.72
88,Gympie,76,AU,1586542129,98,-26.19,152.66,66.0,1.01
89,Belmonte,75,BR,1586542130,94,-15.86,-38.88,77.0,6.93
90,Anadyr,40,RU,1586542131,83,64.75,177.48,-9.0,4.47
91,Bluff,10,NZ,1586541583,95,-46.6,168.33,42.01,1.99
92,Bredasdorp,0,ZA,1586541611,72,-34.53,20.04,66.2,11.41
93,Mount Gambier,75,AU,1586541594,87,-37.83,140.77,53.6,20.8
94,San Cristobal,40,VE,1586541578,44,7.77,-72.22,95.0,6.93
95,Port Alfred,95,ZA,1586541595,81,-33.59,26.89,66.81,2.44
96,Shenjiamen,100,CN,1586542138,88,29.96,122.3,57.79,12.17
97,Barrow,75,US,1586541577,91,71.29,-156.79,-14.8,5.82
98,Westerland,46,DE,1586542140,76,54.91,8.3,46.99,5.01
99,Cidreira,9,BR,1586542071,67,-30.18,-50.21,69.26,10.71
100,Tayirove,29,UA,1586542143,26,46.36,30.65,59.0,15.66
101,Mvangué,99,CM,1586542144,76,2.97,11.52,73.11,3.8
102,Avarua,100,CK,1586541586,100,-21.21,-159.78,77.0,1.12
103,Talaya,0,RU,1586541605,73,61.38,152.75,7.97,4.18
104,Lenine,4,UA,1586542147,63,45.3,35.78,53.11,12.39
105,Kristiansund,100,NO,1586542148,93,63.11,7.73,39.2,5.82
106,Cosamaloapan,2,MX,1586542149,34,18.37,-95.8,98.98,10.83
107,Kailua,75,US,1586541607,83,21.4,-157.74,71.6,4.38
108,Carnarvon,77,AU,1586541597,100,-24.87,113.63,77.0,10.29
109,Kabanjahe,40,ID,1586542152,100,3.1,98.49,78.8,2.24
110,Chokurdakh,40,RU,1586541579,96,70.63,147.92,19.4,9.82
111,Estrela,62,BR,1586542154,43,-28.06,-50.94,63.25,5.08
112,Nizhniy Ingash,100,RU,1586542155,88,56.2,96.53,32.92,4.81
113,Wenling,93,CN,1586541910,90,28.37,121.36,64.0,0.58
114,Jamestown,90,US,1586541581,69,42.1,-79.24,37.4,28.86
115,Kanigoro,13,ID,1586542159,81,-8.13,112.22,76.39,0.83
116,Dudinka,75,RU,1586542160,94,69.41,86.18,32.0,26.84
117,Arraial do Cabo,75,BR,1586541579,73,-22.97,-42.03,75.2,6.93
118,Castro,37,BR,1586542162,34,-24.79,-50.01,71.74,4.25
119,Hilo,90,US,1586541577,73,19.73,-155.09,72.0,3.36
120,Adrar,0,MR,1586542164,8,20.5,-10.07,96.76,7.29
121,Torbay,90,CA,1586541596,92,47.67,-52.73,37.0,21.92
122,Port Blair,75,IN,1586542167,70,11.67,92.75,82.31,7.74
123,Werda,80,BW,1586542168,36,-25.27,23.28,73.98,5.91
124,Saskylakh,84,RU,1586541607,92,71.92,114.08,24.44,17.52
125,Tegul'det,94,RU,1586541613,91,57.31,88.17,32.5,8.9
126,Trofors,100,NO,1586542171,69,65.53,13.41,35.6,11.41
127,Qaanaaq,0,GL,1586541579,83,77.48,-69.36,8.28,1.68
128,Esperance,75,AU,1586542173,87,-33.87,121.9,60.8,5.82
129,Zomin,100,UZ,1586542174,48,39.96,68.4,46.24,2.13
130,Chern',51,RU,1586542175,62,53.45,36.91,41.16,7.58
131,Kanadey,97,RU,1586542177,58,53.17,47.53,47.08,13.15
132,Kolpashevo,22,RU,1586542178,96,58.31,82.91,27.37,6.04
133,São Domingos,73,BR,1586542179,60,-13.4,-46.32,81.84,4.97
134,Norman Wells,20,CA,1586541595,61,65.28,-126.83,14.0,3.36
135,Chipping Sodbury,86,GB,1586542182,45,51.54,-2.39,71.6,8.05
136,Changping,14,CN,1586542183,60,40.22,116.22,50.0,4.47
137,Nuevo Progreso,83,MX,1586542184,69,23.17,-97.95,87.01,1.99
138,Tigil',11,RU,1586541614,95,57.8,158.67,7.84,0.51
139,Coquimbo,80,CL,1586542073,64,-29.95,-71.34,68.0,12.75
140,Kaa-Khem,100,RU,1586542187,63,51.68,94.73,34.47,5.61
141,San Quintín,43,MX,1586542188,57,30.48,-115.95,61.72,8.01
142,Sunbury,75,AU,1586542030,59,-37.58,144.73,63.0,17.22
143,Laguna,1,US,1586542072,63,38.42,-121.42,64.99,3.36
144,Ixtapa,20,MX,1586542191,61,20.7,-105.2,82.4,6.93
145,Tuktoyaktuk,40,CA,1586542193,84,69.45,-133.04,-0.4,9.17
146,Torres,12,BR,1586542194,64,-29.34,-49.73,69.6,9.93
147,Laas,5,IT,1586542195,40,46.62,10.7,75.2,2.24
148,Clyde River,90,CA,1586542196,85,70.47,-68.59,12.2,24.16
149,Bāndarban,0,BD,1586542197,82,22.2,92.23,70.88,2.93
150,Da’an,100,CN,1586542199,65,33.06,106.3,48.0,3.47
151,Poum,61,NC,1586542200,74,-20.23,164.02,76.84,12.55
152,Beringovskiy,100,RU,1586542201,94,63.05,179.32,5.32,15.43
153,Belle Fourche,1,US,1586542202,28,44.67,-103.85,61.0,10.29
154,Port Augusta,16,AU,1586542205,48,-32.5,137.77,64.4,9.17
155,Fort Saint James,0,CA,1586542206,55,54.43,-124.25,38.68,3.53
156,Geraldton,3,AU,1586542208,83,-28.77,114.6,69.8,6.93
157,Praia da Vitória,20,PT,1586542209,77,38.73,-27.07,66.2,6.87
158,Chipinge,26,ZW,1586542210,66,-20.19,32.62,58.6,4.0
159,Tiksi,79,RU,1586542046,93,71.69,128.87,22.46,23.91
160,Urgut,75,UZ,1586542213,81,39.4,67.24,50.0,9.17
161,Troitsko-Pechorsk,100,RU,1586542214,89,62.71,56.2,41.72,11.81
162,Nadym,100,RU,1586542215,98,65.53,72.52,32.9,1.45
163,Skrunda,22,LV,1586542216,86,56.68,22.02,41.0,3.36
164,Boende,88,CD,1586542217,64,-0.22,20.87,80.8,2.24
165,Mitú,100,CO,1586542218,93,1.2,-70.17,73.54,1.12
166,Vilyuysk,33,RU,1586542219,95,63.76,121.62,25.02,9.55
167,Mahibadhoo,11,MV,1586542221,68,3.78,72.97,84.81,1.83
168,Amapá,83,BR,1586542222,82,1.0,-52.0,80.92,5.88
169,Ambon City,16,ID,1586542223,75,-3.7,128.18,82.24,5.66
170,Butaritari,100,KI,1586542176,72,3.07,172.79,83.86,7.23
171,Bull Savanna,88,JM,1586542225,58,17.89,-77.59,83.32,8.55
172,Shimanovsk,0,RU,1586542226,82,52.0,127.7,33.4,4.9
173,Acajutla,88,SV,1586542228,44,13.59,-89.83,93.2,4.7
174,East London,100,ZA,1586542064,78,-33.02,27.91,69.82,10.42
175,Saint-Augustin,97,CA,1586542130,96,51.23,-58.65,30.97,26.64
176,Vagay,95,RU,1586542231,95,57.94,69.02,37.09,6.98
177,Fukuechō,93,JP,1586542232,64,32.69,128.84,56.62,9.86
178,Harper,21,LR,1586542233,76,4.38,-7.72,83.01,8.1
179,Waipawa,0,NZ,1586542235,87,-41.41,175.52,54.0,13.87
180,Madona,89,LV,1586542236,68,56.85,26.22,38.43,7.52
181,Leningradskiy,0,RU,1586542237,80,69.38,178.42,-4.81,7.85
182,Palmer,75,US,1586542209,45,42.16,-72.33,48.99,16.11
183,Travesía,20,HN,1586542239,50,15.87,-87.9,97.0,13.87
184,Luanda,75,AO,1586542241,70,-8.84,13.23,84.2,3.36
185,Keti Bandar,0,PK,1586542109,78,24.14,67.45,77.61,7.96
186,Salyan,71,AZ,1586542243,82,39.59,48.98,47.52,4.81
187,Zhezkazgan,70,KZ,1586542244,57,47.8,67.71,41.45,9.15
188,Biryusinsk,100,RU,1586542245,88,55.96,97.82,33.1,5.01
189,Severo-Kuril'sk,77,RU,1586542246,95,50.68,156.12,31.05,14.74
190,Verāval,0,IN,1586542247,67,20.9,70.37,77.61,11.16
191,Cabo San Lucas,75,MX,1586542248,77,22.89,-109.91,78.8,8.72
192,Katsuura,75,JP,1586542192,39,35.13,140.3,50.0,14.99
193,Khani,75,GE,1586542251,81,41.96,42.96,50.0,10.29
194,Cockburn Town,9,TC,1586542252,74,21.46,-71.14,78.66,2.33
195,Yanam,5,IN,1586542253,80,16.73,82.22,80.47,3.24
196,Hualmay,64,PE,1586542254,65,-11.1,-77.61,78.39,8.86
197,Faanui,41,PF,1586542255,78,-16.48,-151.75,82.49,10.36
198,Nampa,1,US,1586542256,39,43.54,-116.56,66.0,4.68
199,Santa Cruz del Norte,48,CU,1586542258,41,23.15,-81.92,95.0,9.17
200,Codrington,91,AU,1586542259,75,-38.27,141.97,56.32,27.83
201,Cam Ranh,20,VN,1586542260,88,11.92,109.16,78.8,2.24
202,Pemangkat,100,ID,1586542261,84,1.17,108.97,78.85,5.06
203,Santa Rita,40,BR,1586542262,66,-7.11,-34.98,87.8,11.41
204,Los Llanos de Aridane,20,ES,1586542085,78,28.66,-17.92,71.6,8.05
205,Port Lincoln,62,AU,1586542011,72,-34.73,135.87,59.83,17.43
206,Birobidzhan,74,RU,1586542265,79,48.8,132.95,35.22,6.08
207,Ekibastuz,2,KZ,1586542266,63,51.67,75.37,40.48,9.26
208,Lavrentiya,98,RU,1586542058,91,65.58,-171.0,5.81,9.93
209,Anamur,11,TR,1586542269,66,36.08,32.84,61.84,12.59
210,Santa Isabel,14,BR,1586542270,41,-23.32,-46.22,80.6,6.93
211,Miles City,1,US,1586542272,32,46.41,-105.84,55.4,5.82
212,Steinbach am Taunus,15,DE,1586542065,39,50.17,8.57,71.6,9.17
213,Moose Factory,90,CA,1586542274,80,51.26,-80.61,30.2,11.41
214,Vuktyl,100,RU,1586542275,94,63.86,57.31,33.94,9.1
215,Provideniya,100,RU,1586542195,92,64.38,-173.3,9.54,15.28
216,Tamale,100,GH,1586542277,52,9.4,-0.84,83.03,3.83
217,Mahébourg,40,MU,1586542060,78,-20.41,57.7,78.8,13.87
218,Fortuna,90,US,1586542279,81,40.6,-124.16,57.99,5.82
219,Ahipara,41,NZ,1586542281,82,-35.17,173.17,57.94,4.88
220,Hecun,99,CN,1586542282,79,36.53,114.11,38.98,7.0
221,Monduli,75,TZ,1586542283,93,-3.3,36.45,66.2,13.87
222,Houma,40,US,1586541988,40,29.6,-90.72,73.4,13.87
223,Padang,96,ID,1586542286,77,-0.95,100.35,78.62,2.57
224,Tautira,59,PF,1586542287,66,-17.73,-149.15,86.0,6.93
225,Palmas,40,BR,1586542288,74,-10.21,-48.36,82.4,9.17
226,Nizhniy Tsasuchey,0,RU,1586542289,43,50.52,115.13,40.24,5.46
227,Wajima,88,JP,1586542291,60,37.4,136.9,47.1,11.16
228,Ilulissat,0,GL,1586542292,64,69.22,-51.1,35.6,3.36
229,Olafsvik,74,IS,1586542293,81,64.89,-23.71,36.12,15.05
230,Ginda,43,IN,1586542294,26,30.69,78.49,51.44,6.33
231,Baoding,16,CN,1586542296,52,38.85,115.49,46.67,6.49
232,Xiongzhou,89,CN,1586542297,73,25.12,114.3,66.11,3.18
233,Tempio Pausania,5,IT,1586542298,48,40.9,9.1,66.2,6.93
234,Nokaneng,99,BW,1586542299,59,-19.67,22.27,69.6,4.9
235,Klyuchi,9,RU,1586542178,67,52.27,79.17,38.03,7.31
236,Te Anau,11,NZ,1586542301,72,-45.42,167.72,45.99,4.65
237,Portland,20,US,1586542215,66,45.52,-122.68,62.01,1.59
238,Vila do Maio,0,CV,1586542303,42,15.13,-23.22,86.0,17.22
239,Zhalantun,0,CN,1586542304,70,48.0,122.72,44.01,3.0
240,Vila Franca do Campo,20,PT,1586542306,68,37.72,-25.43,64.4,17.22
241,Paamiut,100,GL,1586542307,74,61.99,-49.67,37.92,14.05
242,Agirish,98,RU,1586542308,89,61.92,63.02,39.38,10.94
243,Balkanabat,73,TM,1586542309,38,39.51,54.37,58.98,4.61
244,Dubovskoye,10,RU,1586542310,56,47.41,42.76,48.47,8.72
245,Doha,100,QA,1586542311,58,25.29,51.53,93.2,11.41
246,Burriana,87,ES,1586542312,59,39.89,-0.09,64.4,3.36
247,Hobyo,66,SO,1586542290,66,5.35,48.53,83.71,14.97
248,Miguelópolis,17,BR,1586542314,37,-20.18,-48.03,84.2,8.05
249,Zhigansk,45,RU,1586542299,94,66.77,123.37,22.3,13.53
250,La Ronge,90,CA,1586542260,68,55.1,-105.28,30.2,19.46
251,Nouadhibou,0,MR,1586542087,60,20.93,-17.03,75.2,21.92
252,Suicheng,100,CN,1586542319,87,33.9,117.93,48.0,1.01
253,Havre-St-Pierre,90,CA,1586542096,59,50.23,-63.6,35.6,24.16
254,Petropavlovsk-Kamchatskiy,75,RU,1586542321,85,53.05,158.65,24.8,2.24
255,Nizwá,100,OM,1586542237,19,22.93,57.53,87.42,7.11
256,Nome,90,US,1586542263,79,64.5,-165.41,24.8,6.17
257,Oriximiná,54,BR,1586542324,54,-1.77,-55.87,90.66,1.95
258,Springbok,0,ZA,1586542326,24,-29.66,17.89,59.05,4.32
259,Khovd,100,MN,1586542327,31,48.01,91.64,45.25,6.26
260,Saldanha,13,ZA,1586542328,72,-33.01,17.94,66.2,11.41
261,Lilongwe,30,MW,1586542330,66,-13.97,33.79,63.27,4.79
262,Crotone,0,IT,1586542331,51,39.09,17.12,62.6,5.82
263,Ducheng,66,CN,1586542332,80,23.24,111.53,68.99,3.4
264,Bay City,90,US,1586542333,48,43.59,-83.89,44.6,16.11
265,Souillac,40,MU,1586542313,78,-20.52,57.52,78.8,13.87
266,Pevek,32,RU,1586542335,85,69.7,170.31,-3.15,20.83
267,Veselí nad Lužnicí,52,CZ,1586542336,46,49.18,14.7,57.99,5.68
268,Bengkulu,87,ID,1586542093,81,-3.8,102.27,77.5,4.09
269,Progreso,40,MX,1586542338,29,21.28,-89.67,102.0,5.82
270,Qaqortoq,100,GL,1586542340,26,60.72,-46.03,42.8,41.38
271,Hūn,62,LY,1586542341,23,29.13,15.95,68.05,8.57
272,Isangel,59,VU,1586542212,67,-19.55,169.27,75.49,7.83
273,Dalbandin,79,PK,1586542343,22,28.89,64.41,79.79,9.04
274,The Valley,20,AI,1586542338,58,18.22,-63.06,87.8,8.05
275,Lagoa,0,PT,1586542110,64,39.05,-27.98,62.98,3.71
276,Beaverlodge,90,CA,1586542347,86,55.22,-119.44,30.2,18.34
277,Manokwari,40,ID,1586542281,69,-0.87,134.08,80.1,5.35
278,Bethel,90,US,1586542075,48,41.37,-73.41,50.0,16.11
279,Strand,1,ZA,1586542350,82,-34.11,18.83,64.99,4.7
280,Hasaki,20,JP,1586542351,80,35.73,140.83,35.6,1.12
281,Aklavik,40,CA,1586542352,56,68.22,-135.01,14.0,10.29
282,Malinao,17,PH,1586542206,74,7.59,124.69,66.42,2.42
283,Tual,91,ID,1586542238,76,-5.67,132.75,82.9,9.75
284,Fairbanks,90,US,1586542321,72,64.84,-147.72,17.01,4.7
285,Pyn U Lwin,54,MM,1586542357,32,22.03,96.47,68.7,1.95
286,Mīnāb,81,IR,1586542358,44,27.15,57.08,80.6,6.93
287,Kinango,20,KE,1586542359,94,-4.14,39.32,78.8,3.36
288,Kapaa,1,US,1586542105,88,22.08,-159.32,68.0,6.93
289,Phan Thiet,95,VN,1586542362,79,10.93,108.1,76.89,7.43
290,Dzhebariki-Khaya,97,RU,1586542364,91,62.22,135.8,31.86,9.86
291,Ustyuzhna,68,RU,1586542365,93,58.84,36.43,31.66,2.57
292,Bahía Honda,67,CU,1586542366,54,22.9,-83.16,87.55,6.85
293,Knysna,19,ZA,1586542367,93,-34.04,23.05,60.8,1.12
294,Taywarah,100,AF,1586542369,36,33.35,64.42,46.54,2.42
295,Wanaka,0,NZ,1586542370,54,-44.7,169.15,43.93,6.04
296,Caravelas,62,BR,1586542354,80,-17.71,-39.25,79.68,14.67
297,Mandalgovi,1,MN,1586542372,34,45.76,106.27,38.1,6.71
298,Laramie,1,US,1586542373,14,41.31,-105.59,66.2,25.28
299,Lebu,25,CL,1586542175,66,-37.62,-73.65,62.53,6.87
300,Marzuq,0,YE,1586542375,41,14.4,46.47,72.77,6.78
301,Acaraú,99,BR,1586542095,73,-2.89,-40.12,85.21,8.93
302,Ţahţā,0,EG,1586542378,32,26.77,31.5,77.0,16.11
303,Viedma,0,AR,1586542379,28,-40.81,-63.0,77.61,21.0
304,Alofi,100,NU,1586542380,88,-19.06,-169.92,75.2,4.7
305,Yüksekova,75,TR,1586542381,66,37.57,44.29,48.2,9.17
306,Comodoro Rivadavia,94,AR,1586542382,52,-45.87,-67.5,69.8,5.82
307,Safi,11,MA,1586542145,69,32.3,-9.24,67.21,20.29
308,Butembo,86,CD,1586542384,65,0.15,29.28,60.78,2.8
309,Urusha,0,RU,1586542386,87,54.05,122.9,27.39,3.18
310,Auki,3,SB,1586542387,78,-8.77,160.7,80.69,3.98
311,Itarema,98,BR,1586542388,71,-2.92,-39.92,85.28,9.8
312,Tasiilaq,94,GL,1586542389,63,65.61,-37.64,28.4,2.24
313,Baracoa,0,CU,1586542390,75,20.35,-74.5,78.91,4.14
314,Kavieng,100,PG,1586542392,76,-2.57,150.8,83.25,6.58
315,Uray,89,RU,1586542393,93,60.12,64.78,38.73,9.51
316,Salalah,20,OM,1586542233,74,17.02,54.09,82.4,4.7
317,Hosdurga,71,IN,1586542395,35,13.8,76.29,83.21,6.64
318,Riachão das Neves,72,BR,1586542396,63,-11.75,-44.91,84.96,3.36
319,Athabasca,55,CA,1586542397,72,54.72,-113.29,32.74,11.07
320,Srandakan,6,ID,1586542272,82,-7.94,110.25,79.72,3.96
321,Van Wert,90,US,1586542400,52,40.87,-84.58,44.01,16.11
322,Las Vegas,90,US,1586542086,44,36.17,-115.14,60.01,6.93
323,Inhambane,52,MZ,1586542402,78,-23.86,35.38,73.4,9.15
324,Fuerte,32,PH,1586542403,74,17.54,120.36,77.38,3.58
325,Warragul,67,AU,1586542235,76,-38.17,145.93,60.01,7.0
326,Ambilobe,4,MG,1586542405,77,-13.2,49.05,76.57,7.27
327,Scalea,0,IT,1586542406,53,39.81,15.8,61.0,1.23
328,Parakou,95,BJ,1586542408,34,9.34,2.63,88.36,4.76
329,Bintulu,90,MY,1586542409,100,3.17,113.03,77.0,4.7
330,Tuatapere,0,NZ,1586542411,95,-46.13,167.68,41.0,1.01
331,Dārāb,97,IR,1586542412,23,28.75,54.54,74.12,4.29
332,Esim,73,GH,1586542229,76,4.87,-2.24,83.71,6.08
333,Caraquet,90,CA,1586542414,86,47.79,-64.94,30.2,19.46
334,Sabha,43,LY,1586542415,19,27.04,14.43,73.9,11.63
335,Liepāja,6,LV,1586542416,80,56.54,21.04,41.0,2.24
336,Talnakh,75,RU,1586542417,93,69.49,88.4,32.0,26.84
337,Camocim,94,BR,1586542134,84,-2.9,-40.84,83.35,7.25
338,Iqaluit,40,CA,1586542213,72,63.75,-68.51,10.4,3.36
339,Puerto Vallarta,20,MX,1586542261,61,20.62,-105.23,82.4,6.93
340,Northam,88,GB,1586542422,55,51.03,-4.22,66.99,12.75
341,Constitución,11,CL,1586542423,58,-35.33,-72.42,63.34,6.49
342,Dongsheng,34,CN,1586542424,41,39.82,109.98,35.92,9.08
343,San Jose,90,US,1586542425,71,37.34,-121.89,63.0,5.82
344,Lompoc,1,US,1586542297,81,34.64,-120.46,64.0,6.4
345,Várzea da Palma,20,BR,1586542428,58,-17.6,-44.73,83.3,4.54
346,Stari Kuty,14,UA,1586542429,55,48.27,25.17,42.55,5.53
347,Zhaotong,80,CN,1586542430,48,27.32,103.72,52.66,5.44
348,Dunedin,13,NZ,1586542258,86,-45.87,170.5,52.0,7.85
349,Lázaro Cárdenas,2,MX,1586542148,38,17.96,-102.2,89.17,8.84
350,Korla,93,CN,1586542138,23,41.76,86.15,57.72,11.88
351,Sisimiut,21,GL,1586542342,88,66.94,-53.67,33.6,4.09
352,Kenai,1,US,1586542436,62,60.55,-151.26,30.0,9.17
353,Flinders,0,AU,1586542318,63,-34.58,150.86,64.0,17.22
354,Margate,46,GB,1586542438,76,51.38,1.39,63.0,6.93
355,Hambantota,8,LK,1586542439,80,6.12,81.12,81.55,10.87
356,Klaksvík,100,FO,1586542440,87,62.23,-6.59,44.6,16.11
357,San Francisco,75,US,1586542300,72,37.77,-122.42,64.4,6.93
358,Santa Cruz de Barahona,40,DO,1586542442,62,18.21,-71.1,89.6,18.34
359,San Giovanni in Fiore,3,IT,1586542446,51,39.26,16.7,62.6,5.82
360,Pisco,40,PE,1586542447,30,-13.7,-76.22,77.0,11.41
361,Ust'-Ordynskiy,0,RU,1586542448,55,52.8,104.75,32.0,4.47
362,Ust'-Uda,61,RU,1586542449,80,54.17,103.03,39.94,3.87
363,Preobrazheniye,77,RU,1586542450,70,42.9,133.91,39.13,5.01
364,Araouane,63,ML,1586542451,8,18.9,-3.53,96.04,5.64
365,Abéché,46,TD,1586542452,14,13.83,20.83,91.54,10.38
366,Yakeshi,0,CN,1586542454,52,49.28,120.73,36.16,4.0
367,Bereda,90,ES,1586542455,93,43.27,-7.54,57.99,4.7
368,Eureka,90,US,1586542456,93,40.8,-124.16,57.99,6.93
369,Huarmey,76,PE,1586542457,59,-10.07,-78.15,81.9,10.38
370,Walvis Bay,5,NA,1586542458,78,-22.96,14.51,69.01,1.99
371,Ust'-Barguzin,0,RU,1586542459,67,53.45,108.98,35.58,4.07
372,Lüderitz,0,NA,1586542461,63,-26.65,15.16,66.2,3.36
373,Nizhnyaya Tavda,72,RU,1586542462,92,57.67,66.17,36.61,5.84
374,Humaitá,60,BR,1586542463,78,-7.51,-63.02,85.91,2.24
375,Sergiyevsk,95,RU,1586542464,54,53.94,51.16,45.48,14.85
376,Bamako,44,ML,1586542431,17,12.65,-8.0,99.72,6.02
377,Belaya Gora,90,RU,1586542466,98,68.53,146.42,30.56,5.77
378,Rocha,13,UY,1586542467,60,-34.48,-54.33,68.63,9.19
379,Mpanda,46,TZ,1586542469,70,-6.37,31.04,66.58,2.37
380,Mehamn,100,NO,1586542470,89,71.04,27.85,26.83,16.64
381,Palana,20,RU,1586542471,94,59.12,159.97,4.87,1.97
382,Manga,100,BF,1586542472,25,11.66,-1.07,93.56,4.61
383,Port Antonio,20,JM,1586542262,70,18.18,-76.46,86.0,8.05
384,Bayangol,0,RU,1586542475,44,50.7,103.47,36.55,1.21
385,Havelock,20,US,1586542334,26,34.88,-76.9,62.6,20.8
386,Smoky Lake,69,CA,1586542477,76,54.12,-112.47,30.9,10.67
387,Mago,0,RU,1586542478,94,53.25,140.18,20.53,1.03
388,Ouargaye,100,BF,1586542480,31,11.5,0.06,88.23,9.42
389,Bibiani,97,GH,1586542481,88,6.46,-2.32,74.91,5.61
390,Mar del Plata,40,AR,1586542482,63,-38.0,-57.56,71.01,12.75
391,Obo,90,CF,1586542483,73,5.4,26.49,71.94,1.01
392,Gamba,86,GA,1586542484,84,-2.65,10.0,81.39,9.53
393,Tayoltita,5,MX,1586542485,16,24.08,-105.93,87.08,8.41
394,Hrubieszów,27,PL,1586542486,54,50.8,23.89,44.55,2.37
395,São Gabriel da Cachoeira,40,BR,1586542488,83,-0.13,-67.09,82.4,3.36
396,Lovozero,56,RU,1586542489,90,68.0,35.01,19.33,8.55
397,Tiarei,56,PF,1586542318,66,-17.53,-149.33,86.0,6.93
398,Namtsy,90,RU,1586542491,94,62.72,129.67,39.2,13.42
399,Redmond,1,US,1586542345,58,47.67,-122.12,60.01,2.28
400,Kruisfontein,57,ZA,1586542493,60,-34.0,24.73,60.19,3.09
401,Muravlenko,100,RU,1586542494,91,63.79,74.52,33.6,15.7
402,Santa Rosa,40,PH,1586542496,74,14.31,121.11,82.4,5.82
403,Makakilo City,20,US,1586542302,100,21.35,-158.09,72.0,3.78
404,Marabba,69,SD,1586542498,11,12.35,32.18,93.6,10.89
405,Livny,83,RU,1586542499,63,52.43,37.61,42.51,9.98
406,Yumen,3,CN,1586542500,22,40.28,97.2,43.59,20.45
407,Penzance,79,GB,1586542502,62,50.12,-5.54,66.2,18.34
408,Gushikawa,40,JP,1586542503,93,26.35,127.87,68.0,4.7
409,Saint-Pierre,74,RE,1586542504,74,-21.34,55.48,78.8,17.22
410,Bratsk,99,RU,1586542506,55,56.13,101.61,33.8,4.47
411,Bilibino,5,RU,1586542507,81,68.05,166.44,-12.44,3.27
412,Hailar,0,CN,1586542356,47,49.2,119.7,38.66,7.09
413,Peniche,40,PT,1586542509,77,39.36,-9.38,64.4,9.17
414,Dingle,2,PH,1586542510,80,11.0,122.67,78.42,9.4
415,Vostok,84,RU,1586542307,84,46.49,135.88,26.29,3.0
416,Willowmore,29,ZA,1586542512,33,-33.29,23.49,65.61,5.64
417,Husavik,75,IS,1586542513,64,66.04,-17.34,35.6,6.93
418,Oranjemund,0,NA,1586542515,73,-28.55,16.43,60.3,5.84
419,Brejo Santo,40,BR,1586542516,55,-7.49,-38.99,89.6,2.24
420,Isla Vista,20,US,1586542517,67,34.41,-119.86,59.0,8.05
421,Chirongui,20,YT,1586542518,79,-12.93,45.15,84.2,5.82
422,Naze,22,JP,1586542519,87,28.37,129.48,55.4,3.36
423,Dali,0,CN,1586542520,39,25.7,100.18,48.42,3.85
424,Prince Rupert,1,CA,1586542522,86,54.32,-130.32,39.2,13.87
425,Hirara,65,JP,1586542523,73,24.8,125.28,69.93,15.88
426,Chimoio,40,MZ,1586542524,93,-19.12,33.48,66.2,2.75
427,Vao,90,NC,1586542409,76,-22.67,167.48,73.85,12.12
428,Vila Velha,75,BR,1586542526,73,-20.33,-40.29,77.0,10.29
429,Okhotsk,0,RU,1586542527,92,59.38,143.3,23.16,6.85
430,Kieta,38,PG,1586542528,79,-6.22,155.63,79.39,3.85
431,Yerbogachën,91,RU,1586542529,88,61.28,108.01,30.67,3.44
432,Makīnsk,39,KZ,1586542530,81,52.63,70.42,33.84,7.25
433,Meulaboh,92,ID,1586542531,84,4.14,96.13,79.39,4.59
434,Hoopstad,38,ZA,1586542533,32,-27.83,25.91,69.96,6.15
435,Kavaratti,0,IN,1586542534,68,10.57,72.64,84.63,7.96
436,Kitale,100,KE,1586542535,47,1.02,35.01,63.01,1.54
437,Barcelos,75,PT,1586542301,87,41.54,-8.62,63.0,5.82
438,Ereymentau,1,KZ,1586542537,66,51.62,73.1,37.17,8.97
439,San Francisco de Becerra,77,HN,1586542538,20,14.63,-86.1,98.2,5.5
440,Kawalu,44,ID,1586542539,76,-7.38,108.21,73.89,1.61
441,Ayan,0,RU,1586542540,92,56.45,138.17,27.63,8.75
442,Yining,100,CN,1586542542,85,29.04,114.56,59.41,5.86
443,Najrān,40,SA,1586542543,27,17.49,44.13,86.0,11.41
444,Santa Catarina de Tepehuanes,25,MX,1586542544,11,25.35,-105.73,75.18,16.6
445,Yaan,82,NG,1586542545,76,7.38,8.57,78.93,11.7
446,Nampula,40,MZ,1586542546,83,-15.12,39.27,75.2,12.75
447,North Bend,90,US,1586542265,87,43.41,-124.22,52.0,5.82
448,Kapoeta,42,SS,1586542548,30,4.77,33.59,88.99,10.33
449,Sola,60,VU,1586542549,77,-13.88,167.55,80.11,16.58
450,Man,57,CI,1586542550,51,7.41,-7.55,84.85,1.25
451,Port Moresby,100,PG,1586542551,85,-9.44,147.18,75.52,3.11
452,Acapulco de Juárez,5,MX,1586542553,70,16.86,-99.89,84.2,6.93
453,Djibouti,20,DJ,1586542554,74,11.5,42.5,84.2,4.7
454,Pangnirtung,0,CA,1586542555,83,66.15,-65.71,22.64,0.34
455,Balikpapan,20,ID,1586542556,88,-1.27,116.83,78.8,5.82
456,Villa Carlos Paz,0,AR,1586542557,38,-31.42,-64.5,75.0,11.41
457,Jardim,0,BR,1586542558,30,-21.48,-56.14,82.96,4.25
458,Cayenne,90,GF,1586542508,74,4.93,-52.33,84.2,11.41
459,Srednekolymsk,9,RU,1586542560,91,67.45,153.68,13.98,8.97
460,Kyshtovka,54,RU,1586542561,97,56.55,76.63,30.34,7.74
461,St. Pete Beach,1,US,1586542562,61,27.73,-82.74,86.0,8.05
462,Le Port,76,RE,1586542564,78,-20.94,55.29,78.8,18.34
463,Khuzhir,0,RU,1586542565,66,53.19,107.34,35.13,7.11
464,Namie,0,JP,1586542566,74,37.48,141.0,39.99,6.51
465,Masumbwe,21,TZ,1586542567,63,-3.63,32.18,67.35,3.94
466,Petauke,38,ZM,1586542568,63,-14.24,31.33,65.07,6.8
467,Gijang,75,KR,1586542569,65,35.24,129.21,44.6,2.24
468,Yeppoon,40,AU,1586542495,100,-23.13,150.73,68.0,2.91
469,Yulara,0,AU,1586542571,41,-25.24,130.99,57.2,4.7
470,Portadown,100,GB,1586542572,72,54.42,-6.44,60.8,5.82
471,Suba,27,PH,1586542573,74,10.84,121.01,83.53,16.64
472,Ukiah,1,US,1586542574,63,39.15,-123.21,62.01,4.7
473,Coyhaique,90,CL,1586542353,76,-45.58,-72.07,57.2,3.36
474,Grand Gaube,40,MU,1586542577,78,-20.01,57.66,78.8,8.05
475,Ovalle,43,CL,1586542543,43,-30.6,-71.2,75.67,8.08
476,Killybegs,20,IE,1586542579,100,54.63,-8.45,55.99,2.24
477,Paciran,47,ID,1586542580,84,-6.88,112.38,79.18,2.13
478,Abhā,40,SA,1586542581,77,18.22,42.51,68.0,11.41
479,Ostrovnoy,34,RU,1586542582,95,68.05,39.51,14.58,9.31
480,Jega,100,NG,1586542583,29,12.22,4.38,87.33,10.56
481,Basco,52,PH,1586542584,81,20.45,121.97,75.38,17.25
482,Mossamedes,5,AO,1586542585,56,-15.2,12.15,77.07,15.75
483,Conceição do Araguaia,39,BR,1586542586,66,-8.26,-49.26,87.78,2.66
484,Alcantarilla,93,ES,1586542588,68,37.97,-1.22,66.0,9.17
485,Envira,86,BR,1586542589,83,-7.3,-70.22,82.69,2.98
486,Great Yarmouth,93,GB,1586542590,62,52.61,1.73,60.01,9.17
487,General Pico,0,AR,1586542591,35,-35.66,-63.76,74.91,16.46
488,Diplo,0,PK,1586542592,42,24.47,69.58,81.72,11.63
489,Moerai,100,PF,1586542593,87,-22.43,-151.33,81.7,14.47
490,Havøysund,100,NO,1586542594,86,71.0,24.66,26.6,6.93
491,Zhirnov,66,RU,1586542595,53,48.17,41.13,52.14,12.37
492,Kulhudhuffushi,0,MV,1586542596,65,6.62,73.07,85.1,4.54
493,Narsaq,100,GL,1586542597,26,60.92,-46.05,42.8,41.38
494,Gemeente Wageningen,90,NL,1586542598,41,51.97,5.67,63.0,6.93
495,Taoudenni,0,ML,1586542341,8,22.68,-3.98,99.73,5.73
496,Itoman,75,JP,1586542601,64,26.12,127.67,68.0,6.93
497,Wagar,7,SD,1586542602,36,16.15,36.2,80.74,14.36
498,Goderich,84,CA,1586542506,83,43.75,-81.72,37.0,15.99
499,Rawson,32,AR,1586542604,35,-43.3,-65.1,77.92,23.33
500,Sur,85,OM,1586542605,57,22.57,59.53,84.52,9.82
501,Manggar,100,ID,1586542606,81,-2.88,108.27,80.76,4.23
502,Muscat,97,OM,1586542607,70,23.61,58.59,84.2,4.7
503,Makat,86,KZ,1586542608,51,47.65,53.35,48.81,11.77
504,Makaha,40,US,1586542610,88,21.47,-158.22,77.0,3.36
505,Kungurtug,64,RU,1586542611,45,50.6,97.52,34.39,4.32
506,Mabaruma,100,GY,1586542338,58,8.2,-59.78,86.23,7.63
507,Chennai,40,IN,1586542443,74,13.09,80.28,86.0,8.05
508,Harbour Breton,100,CA,1586542614,96,47.48,-55.8,37.9,24.96
509,Flin Flon,90,CA,1586542598,86,54.77,-101.86,28.4,4.7
510,Podor,0,MR,1586542616,9,16.65,-14.96,111.2,8.66
511,Caramay,1,PH,1586542618,78,10.18,119.24,80.15,6.51
512,Champerico,40,GT,1586542619,59,14.3,-91.92,93.2,9.17
513,Pāsighāt,2,IN,1586542620,45,28.07,95.33,70.45,3.91
514,Tabuk,88,PH,1586542621,80,17.42,121.44,73.71,2.04
515,Smithers,1,CA,1586542500,51,54.78,-127.17,35.6,5.82
516,Mâncio Lima,75,BR,1586542623,62,-7.61,-72.9,89.6,6.93
517,Dobele,69,LV,1586542624,56,56.62,23.28,41.0,11.41
518,Khandyga,100,RU,1586542626,93,62.67,135.6,31.41,12.41
519,Maragogi,0,BR,1586542627,62,-9.01,-35.22,86.04,10.87
520,Tazmalt,75,DZ,1586542628,87,36.39,4.4,60.8,5.82
521,Kununurra,90,AU,1586542629,94,-15.77,128.73,69.8,5.82
522,College,90,US,1586542491,78,64.86,-147.8,19.0,8.05
523,Samarinda,26,ID,1586542631,91,-0.5,117.15,76.14,3.62
524,Metro,95,ID,1586542632,91,-5.11,105.31,76.1,5.03
525,Vrede,100,ZA,1586542633,38,-27.43,29.17,57.74,2.89
526,Wanning,35,CN,1586542634,87,18.8,110.4,74.59,5.73
527,Province of Trapani,0,IT,1586542635,82,37.83,12.67,61.0,13.87
528,Eravur,54,LK,1586542637,75,7.77,81.61,80.78,7.02
529,Itapora,35,BR,1586542638,25,-22.08,-54.79,83.26,3.38
530,Tyukhtet,20,RU,1586542639,90,56.54,89.3,30.45,6.04
531,Hamilton,75,US,1586542458,42,39.18,-84.53,46.99,10.29
532,Ancud,75,CL,1586542641,87,-41.87,-73.82,59.0,6.93
533,Kysyl-Syr,53,RU,1586542642,94,63.9,122.76,25.74,9.51
534,Oga,39,IT,1586542643,48,46.46,10.35,53.6,4.7
535,‘Āhuimanu,40,US,1586542644,69,21.44,-157.84,77.0,3.91
536,Rūdbār,100,AF,1586542645,25,30.15,62.6,79.45,6.17
537,Boussé,99,BF,1586542646,36,12.66,-1.89,95.0,3.36
538,Labuhan,53,ID,1586542647,83,-6.88,112.21,79.29,2.08
539,Inírida,99,CO,1586542649,87,3.87,-67.92,80.38,5.59
540,Vaitape,43,PF,1586542354,78,-16.52,-151.75,83.35,10.31
541,Muhafazat Lahij,13,YE,1586542651,43,13.17,44.58,81.43,10.18
542,Yar-Sale,13,RU,1586542652,90,66.83,70.83,13.77,7.18
543,High Level,40,CA,1586542653,49,58.52,-117.14,26.6,13.87
544,Thunder Bay,40,CA,1586542412,34,48.4,-89.32,37.4,11.41
545,Otse,100,BW,1586542655,64,-25.02,25.73,69.8,6.93
546,Chadiza,67,ZM,1586542656,67,-14.07,32.44,63.68,7.38
547,Simao,35,CN,1586542657,41,22.79,100.97,60.64,0.65
548,Nishihara,40,JP,1586542659,72,26.18,127.76,68.0,5.82
549,Mmathubudukwane,100,BW,1586542660,64,-24.6,26.43,69.8,6.93
550,Altamont,1,US,1586542584,50,42.21,-121.74,60.01,4.18
551,Haines Junction,0,CA,1586542662,80,60.75,-137.51,20.61,0.6
552,Lensk,82,RU,1586542663,90,60.73,114.93,31.84,4.0
553,Itaituba,20,BR,1586542394,59,-4.28,-55.98,91.4,9.17
554,Río Gallegos,75,AR,1586542665,29,-51.62,-69.22,60.8,18.34
555,Yuanli,40,TW,1586542666,77,24.44,120.65,73.0,6.93
556,Savannah Bight,95,HN,1586542667,77,16.45,-85.85,81.34,21.25
557,Xingtai,81,CN,1586542668,61,37.06,114.49,43.18,6.71
558,Asău,92,RO,1586542670,26,46.43,26.4,59.0,11.41
559,Lorengau,97,PG,1586542671,77,-2.02,147.27,81.66,5.35
560,Mbigou,99,GA,1586542672,80,-1.9,11.91,71.26,2.55
561,Birin,3,NP,1586542673,25,26.89,88.07,61.25,5.37
562,Siilinjärvi,99,FI,1586542674,89,63.08,27.67,32.0,4.7
563,Udachny,12,RU,1586542675,62,66.42,112.4,24.8,8.95
564,Yarmouth,40,US,1586542676,49,41.71,-70.23,50.0,13.87
565,Buala,34,SB,1586542678,78,-8.14,159.59,81.57,6.15
566,Namwala,91,ZM,1586542679,62,-15.75,26.44,67.26,4.16
